{
"type": "FeatureCollection",
"features": [
{ "type": "Feature", "properties": { "line": "LRT 1", "StationName": "Baclaran Station", "latitude": 14.534187, "longitude": 120.998312, "DailyRidership": 1 }, "geometry": { "type": "Point", "coordinates": [ 120.998312, 14.534187 ] } },
{ "type": "Feature", "properties": { "line": "LRT 1", "StationName": "EDSA Station", "latitude": 14.539063, "longitude": 121.000687, "DailyRidership": 2 }, "geometry": { "type": "Point", "coordinates": [ 121.000687, 14.539063 ] } },
{ "type": "Feature", "properties": { "line": "LRT 1", "StationName": "Libertad Station", "latitude": 14.547812, "longitude": 120.998563, "DailyRidership": 3 }, "geometry": { "type": "Point", "coordinates": [ 120.998563, 14.547812 ] } },
{ "type": "Feature", "properties": { "line": "LRT 1", "StationName": "Gil Puyat Station", "latitude": 14.554188, "longitude": 120.997187, "DailyRidership": 4 }, "geometry": { "type": "Point", "coordinates": [ 120.997187, 14.554188 ] } },
{ "type": "Feature", "properties": { "line": "LRT 1", "StationName": "Vito Cruz Station", "latitude": 14.563313, "longitude": 120.994812, "DailyRidership": 5 }, "geometry": { "type": "Point", "coordinates": [ 120.994812, 14.563313 ] } },
{ "type": "Feature", "properties": { "line": "LRT 1", "StationName": "Quirino Station", "latitude": 14.570313, "longitude": 120.991563, "DailyRidership": 6 }, "geometry": { "type": "Point", "coordinates": [ 120.991563, 14.570313 ] } },
{ "type": "Feature", "properties": { "line": "LRT 1", "StationName": "Pedro Gil Station", "latitude": 14.576562, "longitude": 120.988062, "DailyRidership": 3 }, "geometry": { "type": "Point", "coordinates": [ 120.988062, 14.576562 ] } },
{ "type": "Feature", "properties": { "line": "LRT 1", "StationName": "United Nations Station", "latitude": 14.582562, "longitude": 120.984562, "DailyRidership": 8 }, "geometry": { "type": "Point", "coordinates": [ 120.984562, 14.582562 ] } },
{ "type": "Feature", "properties": { "line": "LRT 1", "StationName": "Central Station", "latitude": 14.592813, "longitude": 120.981687, "DailyRidership": 2 }, "geometry": { "type": "Point", "coordinates": [ 120.981687, 14.592813 ] } },
{ "type": "Feature", "properties": { "line": "LRT 1", "StationName": "Carriedo Station", "latitude": 14.599063, "longitude": 120.981313, "DailyRidership": 10 }, "geometry": { "type": "Point", "coordinates": [ 120.981313, 14.599063 ] } },
{ "type": "Feature", "properties": { "line": "LRT 1", "StationName": "Doroteo Jose Station", "latitude": 14.605438, "longitude": 120.982062, "DailyRidership": 4 }, "geometry": { "type": "Point", "coordinates": [ 120.982062, 14.605438 ] } },
{ "type": "Feature", "properties": { "line": "LRT 1", "StationName": "Bambang Station", "latitude": 14.611187, "longitude": 120.982438, "DailyRidership": 9 }, "geometry": { "type": "Point", "coordinates": [ 120.982438, 14.611187 ] } },
{ "type": "Feature", "properties": { "line": "LRT 1", "StationName": "Tayuman Station", "latitude": 14.616688, "longitude": 120.982812, "DailyRidership": 8 }, "geometry": { "type": "Point", "coordinates": [ 120.982812, 14.616688 ] } },
{ "type": "Feature", "properties": { "line": "LRT 1", "StationName": "Blumentritt Station", "latitude": 14.622687, "longitude": 120.982938, "DailyRidership": 7 }, "geometry": { "type": "Point", "coordinates": [ 120.982938, 14.622687 ] } },
{ "type": "Feature", "properties": { "line": "LRT 1", "StationName": "Abad Santos Station", "latitude": 14.630562, "longitude": 120.981437, "DailyRidership": 5 }, "geometry": { "type": "Point", "coordinates": [ 120.981437, 14.630562 ] } },
{ "type": "Feature", "properties": { "line": "LRT 1", "StationName": "R. Papa Station", "latitude": 14.636188, "longitude": 120.982313, "DailyRidership": 4 }, "geometry": { "type": "Point", "coordinates": [ 120.982313, 14.636188 ] } },
{ "type": "Feature", "properties": { "line": "LRT 1", "StationName": "5th Avenue Station", "latitude": 14.644438, "longitude": 120.983563, "DailyRidership": 3 }, "geometry": { "type": "Point", "coordinates": [ 120.983563, 14.644438 ] } },
{ "type": "Feature", "properties": { "line": "LRT 1", "StationName": "Monumento Station", "latitude": 14.654312, "longitude": 120.983937, "DailyRidership": 3 }, "geometry": { "type": "Point", "coordinates": [ 120.983937, 14.654312 ] } },
{ "type": "Feature", "properties": { "line": "LRT 1", "StationName": "Balintawak Station", "latitude": 14.657312, "longitude": 121.003187, "DailyRidership": 2 }, "geometry": { "type": "Point", "coordinates": [ 121.003187, 14.657312 ] } },
{ "type": "Feature", "properties": { "line": "LRT 1", "StationName": "Roosevelt Station", "latitude": 14.657563, "longitude": 121.021062, "DailyRidership": 5 }, "geometry": { "type": "Point", "coordinates": [ 121.021062, 14.657563 ] } },
{ "type": "Feature", "properties": { "line": "LRT 2", "StationName": "Recto Station", "latitude": 14.603438, "longitude": 120.983563, "DailyRidership": 5 }, "geometry": { "type": "Point", "coordinates": [ 120.983563, 14.603438 ] } },
{ "type": "Feature", "properties": { "line": "LRT 2", "StationName": "Legarda Station", "latitude": 14.600812, "longitude": 120.992563, "DailyRidership": 2 }, "geometry": { "type": "Point", "coordinates": [ 120.992563, 14.600812 ] } },
{ "type": "Feature", "properties": { "line": "LRT 2", "StationName": "Pureza Station", "latitude": 14.601688, "longitude": 121.005188, "DailyRidership": 3 }, "geometry": { "type": "Point", "coordinates": [ 121.005188, 14.601688 ] } },
{ "type": "Feature", "properties": { "line": "LRT 2", "StationName": "V. Mapa Station", "latitude": 14.604062, "longitude": 121.017187, "DailyRidership": 6 }, "geometry": { "type": "Point", "coordinates": [ 121.017187, 14.604062 ] } },
{ "type": "Feature", "properties": { "line": "LRT 2", "StationName": "J. Ruiz Station", "latitude": 14.610563, "longitude": 121.026187, "DailyRidership": 4 }, "geometry": { "type": "Point", "coordinates": [ 121.026187, 14.610563 ] } },
{ "type": "Feature", "properties": { "line": "LRT 2", "StationName": "Gilmore Station", "latitude": 14.613563, "longitude": 121.034188, "DailyRidership": 8 }, "geometry": { "type": "Point", "coordinates": [ 121.034188, 14.613563 ] } },
{ "type": "Feature", "properties": { "line": "LRT 2", "StationName": "Betty Go-Belmonte Station", "latitude": 14.618562, "longitude": 121.042812, "DailyRidership": 6 }, "geometry": { "type": "Point", "coordinates": [ 121.042812, 14.618562 ] } },
{ "type": "Feature", "properties": { "line": "LRT 2", "StationName": "Araneta Center-Cubao Station", "latitude": 14.622687, "longitude": 121.052813, "DailyRidership": 10 }, "geometry": { "type": "Point", "coordinates": [ 121.052813, 14.622687 ] } },
{ "type": "Feature", "properties": { "line": "LRT 2", "StationName": "Anonas Station", "latitude": 14.627937, "longitude": 121.064688, "DailyRidership": 6 }, "geometry": { "type": "Point", "coordinates": [ 121.064688, 14.627937 ] } },
{ "type": "Feature", "properties": { "line": "LRT 2", "StationName": "Katipunan Station", "latitude": 14.630813, "longitude": 121.072688, "DailyRidership": 9 }, "geometry": { "type": "Point", "coordinates": [ 121.072688, 14.630813 ] } },
{ "type": "Feature", "properties": { "line": "LRT 2", "StationName": "Santolan Station", "latitude": 14.622063, "longitude": 121.085938, "DailyRidership": 8 }, "geometry": { "type": "Point", "coordinates": [ 121.085938, 14.622063 ] } },
{ "type": "Feature", "properties": { "line": "LRT 2", "StationName": "Marikina Station", "latitude": 14.620437, "longitude": 121.100313, "DailyRidership": 5 }, "geometry": { "type": "Point", "coordinates": [ 121.100313, 14.620437 ] } },
{ "type": "Feature", "properties": { "line": "LRT 2", "StationName": "Antipolo Station", "latitude": 14.624813, "longitude": 121.121313, "DailyRidership": 10 }, "geometry": { "type": "Point", "coordinates": [ 121.121313, 14.624813 ] } },
{ "type": "Feature", "properties": { "line": "MRT 3", "StationName": "North Avenue Station", "latitude": 14.652188, "longitude": 121.032313, "DailyRidership": 5 }, "geometry": { "type": "Point", "coordinates": [ 121.032313, 14.652188 ] } },
{ "type": "Feature", "properties": { "line": "MRT 3", "StationName": "Quezon Avenue Station", "latitude": 14.642812, "longitude": 121.038562, "DailyRidership": 5 }, "geometry": { "type": "Point", "coordinates": [ 121.038562, 14.642812 ] } },
{ "type": "Feature", "properties": { "line": "MRT 3", "StationName": "GMA Kamuning Station", "latitude": 14.635188, "longitude": 121.043312, "DailyRidership": 4 }, "geometry": { "type": "Point", "coordinates": [ 121.043312, 14.635188 ] } },
{ "type": "Feature", "properties": { "line": "MRT 3", "StationName": "Araneta Center-Cubao Station", "latitude": 14.619438, "longitude": 121.051187, "DailyRidership": 10 }, "geometry": { "type": "Point", "coordinates": [ 121.051187, 14.619438 ] } },
{ "type": "Feature", "properties": { "line": "MRT 3", "StationName": "Santolan-Annapolis Station", "latitude": 14.607812, "longitude": 121.056438, "DailyRidership": 7 }, "geometry": { "type": "Point", "coordinates": [ 121.056438, 14.607812 ] } },
{ "type": "Feature", "properties": { "line": "MRT 3", "StationName": "Ortigas Avenue Station", "latitude": 14.587813, "longitude": 121.056687, "DailyRidership": 8 }, "geometry": { "type": "Point", "coordinates": [ 121.056687, 14.587813 ] } },
{ "type": "Feature", "properties": { "line": "MRT 3", "StationName": "Shaw Boulevard Station", "latitude": 14.581188, "longitude": 121.053562, "DailyRidership": 10 }, "geometry": { "type": "Point", "coordinates": [ 121.053562, 14.581188 ] } },
{ "type": "Feature", "properties": { "line": "MRT 3", "StationName": "Boni Avenue Station", "latitude": 14.573812, "longitude": 121.048187, "DailyRidership": 4 }, "geometry": { "type": "Point", "coordinates": [ 121.048187, 14.573812 ] } },
{ "type": "Feature", "properties": { "line": "MRT 3", "StationName": "Guadalupe Station", "latitude": 14.567438, "longitude": 121.045687, "DailyRidership": 7 }, "geometry": { "type": "Point", "coordinates": [ 121.045687, 14.567438 ] } },
{ "type": "Feature", "properties": { "line": "MRT 3", "StationName": "Buendia Station", "latitude": 14.554562, "longitude": 121.034562, "DailyRidership": 8 }, "geometry": { "type": "Point", "coordinates": [ 121.034562, 14.554562 ] } },
{ "type": "Feature", "properties": { "line": "MRT 3", "StationName": "Ayala Station", "latitude": 14.549188, "longitude": 121.027938, "DailyRidership": 5 }, "geometry": { "type": "Point", "coordinates": [ 121.027938, 14.549188 ] } },
{ "type": "Feature", "properties": { "line": "MRT 3", "StationName": "Magallanes Station", "latitude": 14.542063, "longitude": 121.019437, "DailyRidership": 9 }, "geometry": { "type": "Point", "coordinates": [ 121.019437, 14.542063 ] } },
{ "type": "Feature", "properties": { "line": "MRT 3", "StationName": "Taft Avenue Station", "latitude": 14.537688, "longitude": 121.002188, "DailyRidership": 10 }, "geometry": { "type": "Point", "coordinates": [ 121.002188, 14.537688 ] } }
]
}
